Latitude;Longitude;Time;Date;Number of Sats;GPS Speed (Kn);GPS True Heading;GPS Magnetic Variation;HDOP;C Magnetic Heading;C True Heading;Pitch Angle;Roll Angle;C Inside Temp (c);DFS Depth (m);DTB Height (m);Total Water Column (m);Batt Percent;Power Watts;Watt-Hours;Batt Volts;Batt Ampers;Batt State;Time to Empty;Current Step;Dist To Next (m);Next Speed (kn);Vehicle Speed (kn);Motor Speed CMD;Next Heading;Next Long;Next Lat;Next Depth (m);Depth Goal (m);Vehicle State;Error State;Distance to Track (m);Fin Pitch R;Fin Pitch L;Pitch Goal;Fin Yaw T;Fin Yaw B;Yaw Goal;Fin Roll;DVL-Depth (m);DVL -Altitude (m);DVL -Water Column (m);DVL-FixType;DVL-FixQuality;DVL-Temperature;Conductivity (mmhos/cm);CTD-Temperature (c);Salinity (ppt);Sound Speed (m/s);YSI-Date m/d/y   ;YSI-Time hh:mm:ss;YSI-Temp C;YSI-SpCond mS/cm;YSI-Sal ppt;YSI-Depth feet;YSI-pH;YSI-Chl ug/L;YSI-Chl RFU;YSI-BGA-PC cells/mL;YSI-BGA-PC RFU;YSI-ODOsat %;YSI-ODO mg/L;YSI-Battery volts;
34.086983;-117.810049333333;20:05:21.19;3/12/2018;9;0.103;163.44;11.892073294907;0.91;272.8;290.21;2.5;-9.5;21.7;.02;7.29;7.30;87;25;400.3;16;-1.5;D;1045.3;0;8.825;1.9455;0.09;128;129.37;-117.80997541;34.08693254;0;0;1;N;4.413258;72;72;11;5;5;130.5612;0;9999.99;7.31;7.437;2;9;18.3;0;17.36;0.24;1474.21563;03/12/18;15:01:31;17.36;0.505;0.24;-0.807;9.33;31.4;7.5;232972;110.8;133.8;12.81;14.1;
34.086983;-117.810048666667;20:05:21.70;3/12/2018;9;0.116;163.44;11.892073294907;0.91;273;290.4;2.5;-9.4;21.7;.02;7.29;7.30;87;25;400.3;16;-1.5;D;1045.3;0;8.777;1.9455;0.09;128;129.62;-117.80997541;34.08693254;0;0;1;N;4.423263;72;72;11;5;5;130.5964;0;9999.99;7.31;7.437;2;9;18.3;0;17.36;0.25;1474.22672;03/12/18;15:01:32;17.36;0.506;0.25;-0.810;9.33;27.3;6.5;189765;90.3;133.8;12.81;14.1;
34.086983;-117.810048666667;20:05:22.20;3/12/2018;9;0.116;163.44;11.892073294907;0.91;273;290.4;2.5;-9.3;21.7;.02;7.29;7.31;87;25;400.3;16;-1.5;D;1045.3;0;8.777;1.9455;0.09;128;129.62;-117.80997541;34.08693254;0;0;1;N;4.423263;72;72;11;5;5;130.5964;0;9999.99;7.31;7.437;2;9;18.3;0;17.37;0.25;1474.25987;03/12/18;15:01:33;17.37;0.506;0.25;-0.810;9.33;32.2;7.7;217929;103.7;133.7;12.81;14.1;
34.0869833968741;-117.810047937207;20:05:22.70;3/12/2018;9;0.119;163.44;11.892073294907;0.91;272.6;290.02;2.4;-9.7;21.7;.02;7.29;7.31;87;25;400.3;16;-1.5;D;1045.3;0;8.754;1.9455;0.1;170;130.12;-117.80997541;34.08693254;0;0;1;N;4.423263;72;72;11;5;5;130.0867;0;9999.99;7.31;7.437;2;9;18.3;0;17.37;0.25;1474.25987;03/12/18;15:01:33;17.37;0.506;0.25;-0.810;9.33;32.2;7.7;217929;103.7;133.7;12.81;14.1;
34.0869834705584;-117.810047667707;20:05:23.20;3/12/2018;9;0.119;163.44;11.892073294907;0.91;274.4;291.75;3;-8.5;21.7;.02;7.26;7.28;87;25;400.3;16;-1.5;D;1045.3;0;8.740;1.9455;0.1;170;130.27;-117.80997541;34.08693254;0;0;1;N;4.423263;73;73;11;5;5;130.2345;0;9999.99;7.28;7.407;2;9;18.3;0;17.37;0.24;1474.24825;03/12/18;15:01:34;17.37;0.505;0.24;-0.797;9.33;33.4;7.9;191312;91.0;133.8;12.81;14.2;
34.0869838977707;-117.810047569329;20:05:23.70;3/12/2018;9;0.134;163.44;11.892073294907;0.91;275.9;293.18;4.2;-3.7;21.7;.02;7.26;7.28;87;25;400.3;16;-1.5;D;1045.3;0;8.764;1.9455;0.1;170;130.54;-117.80997541;34.08693254;0;0;1;N;4.423263;82;82;11;5;5;130.51;0;9999.99;7.28;7.407;2;9;18.3;0;17.37;0.24;1474.24825;03/12/18;15:01:34;17.37;0.505;0.24;-0.797;9.33;33.4;7.9;191312;91.0;133.8;12.81;14.2;
34.086983965862;-117.81004729744;20:05:24.20;3/12/2018;9;0.134;163.44;11.892073294907;0.91;274.1;291.46;3.5;1.1;21.7;.03;7.26;7.28;87;25;400.3;16;-1.5;D;1045.3;0;8.750;1.9455;0.1;170;130.69;-117.80997541;34.08693254;0;0;1;N;4.423263;78;78;11;5;5;130.6536;0;9999.99;7.28;7.407;2;9;18.3;0;17.37;0.24;1474.24922;03/12/18;15:01:35;17.37;0.504;0.24;-0.800;9.33;33.8;8.0;186521;88.7;133.8;12.81;14.1;
34.0869848301921;-117.810049397075;20:05:24.70;3/12/2018;9;0.434;163.44;11.892073294907;0.91;272.5;289.92;2.9;-2.6;21.7;.02;7.10;7.12;87;31;400.3;16;-1.9;D;860.1;0;8.959;1.9455;0.08;170;130.35;-117.80997541;34.08693254;0;0;1;N;4.423263;74;74;11;5;5;130.3318;0;9999.99;7.13;7.257;2;9;18.3;0;17.37;0.24;1474.24922;03/12/18;15:01:35;17.37;0.504;0.24;-0.800;9.33;33.8;8.0;186521;88.7;133.8;12.81;14.1;
34.086985013372;-117.810049618432;20:05:25.20;3/12/2018;9;0.434;163.44;11.892073294907;0.91;269.9;287.42;2.3;-7.4;21.7;.02;7.03;7.05;87;31;400.3;16;-1.9;D;860.1;0;8.988;1.9455;0.32;170;130.36;-117.80997541;34.08693254;0;0;1;N;4.423263;72;72;11;5;5;130.387;0;9999.99;7.05;7.177;2;9;18.4;0;17.35;0.24;1474.18256;03/12/18;15:01:36;17.35;0.504;0.24;-0.796;9.33;37.5;8.9;185160;88.1;133.9;12.83;14.1;
34.0869864961718;-117.810053717449;20:05:25.72;3/12/2018;9;0.842;258.3;11.892073294907;0.91;266.4;284.02;1.8;-6.4;21.7;.02;7.03;7.04;87;31;400.3;16;-1.9;D;860.1;0;9.384;1.9455;0.32;170;129.63;-117.80997541;34.08693254;0;0;1;N;4.423263;69;69;11;5;5;129.6606;0;9999.99;7.05;7.177;2;9;18.4;0;17.35;0.24;1474.18256;03/12/18;15:01:36;17.35;0.504;0.24;-0.796;9.33;37.5;8.9;185160;88.1;133.9;12.83;14.1;
34.086988;-117.810058;20:05:26.23;3/12/2018;9;1.115;278.89;11.892073294907;0.91;262;279.71;1.7;-4.9;21.7;.01;7.19;7.21;87;31;400.3;16;-1.9;D;860.1;0;9.488;1.9455;0.6;170;129.38;-117.80997541;34.08693254;0;0;1;N;4.423263;67;67;11;5;5;129.4869;0;9999.99;7.21;7.337;2;9;18.3;0;17.31;0.24;1474.04978;03/12/18;15:01:37;17.31;0.504;0.24;-0.816;9.32;35.8;8.5;208783;99.3;134.0;12.85;12.3;
34.0869882801398;-117.810059630224;20:05:26.73;3/12/2018;10;1.115;278.89;11.892073294907;0.85;259.3;277.05;2.4;-5;21.7;.01;7.19;7.21;87;31;400.3;16;-1.9;D;860.1;0;9.932;1.9455;0.6;170;128.5;-117.80997541;34.08693254;0;0;1;N;4.423263;71;71;11;5;5;128.6059;0;9999.99;7.21;7.337;2;9;18.3;0;17.31;0.24;1474.04978;03/12/18;15:01:37;17.31;0.504;0.24;-0.816;9.32;35.8;8.5;208783;99.3;134.0;12.85;12.3;
34.0869893333333;-117.810064333333;20:05:27.23;3/12/2018;10;1.243;281.17;11.892073294907;0.85;254.7;272.48;3;-5.8;21.7;.02;7.20;7.22;87;31;400.3;16;-1.9;D;860.1;0;10.087;1.9455;0.83;170;127.94;-117.80997541;34.08693254;0;0;1;N;4.423263;75;75;11;5;5;128.1159;0;9999.99;7.23;7.357;2;9;18.4;0;17.28;0.24;1473.9511;03/12/18;15:01:38;17.28;0.504;0.24;-0.821;9.32;36.3;8.6;271;0.1;134.1;12.87;12.4;
34.0869893716585;-117.810066636263;20:05:27.73;3/12/2018;10;1.243;281.17;11.892073294907;0.85;250.7;268.47;3.1;-5.9;21.7;.02;7.20;7.22;87;31;400.3;16;-1.9;D;860.1;0;10.518;1.9455;0.83;170;126.82;-117.80997541;34.08693254;0;0;1;N;4.423263;76;76;11;5;5;127.0004;0;9999.99;7.23;7.357;2;9;18.4;0;17.28;0.24;1473.9511;03/12/18;15:01:38;17.28;0.504;0.24;-0.821;9.32;36.3;8.6;271;0.1;134.1;12.87;12.4;
34.0869901666667;-117.810071166667;20:05:28.25;3/12/2018;10;1.253;278.94;11.892073294907;0.85;245.6;263.31;3.9;-6.4;21.7;.02;7.22;7.24;87;41;400.3;16;-2.5;D;647.2;0;10.675;1.9455;0.97;170;126.09;-117.80997541;34.08693254;0;0;1;N;4.423263;80;80;11;5;5;126.2946;0;9999.99;7.25;7.377;2;9;18.3;0;17.26;0.24;1473.88587;03/12/18;15:01:39;17.26;0.504;0.24;-0.847;9.32;37.8;9.0;-830;-0.4;134.3;12.89;12.2;
34.0869897829246;-117.810074100712;20:05:28.75;3/12/2018;10;1.253;278.94;11.892073294907;0.85;242.2;259.85;4.3;-6.4;21.7;.03;7.22;7.24;87;41;400.3;16;-2.5;D;647.2;0;11.103;1.9455;0.97;170;124.88;-117.80997541;34.08693254;0;0;1;N;4.423263;83;83;11;5;5;125.0828;0;9999.99;7.25;7.377;2;9;18.3;0;17.26;0.24;1473.88587;03/12/18;15:01:39;17.26;0.504;0.24;-0.847;9.32;37.8;9.0;-830;-0.4;134.3;12.89;12.2;
34.08699;-117.810078333333;20:05:29.25;3/12/2018;10;1.271;272.56;11.892073294907;0.85;236.7;254.21;4.3;-6.7;21.7;.03;7.15;7.18;87;41;400.3;16;-2.5;D;647.2;0;11.256;1.9455;1.05;170;124.01;-117.80997541;34.08693254;0;0;1;N;4.423263;83;83;11;5;5;124.2449;0;9999.99;7.19;7.317;2;9;18.3;0;17.25;0.24;1473.8536;03/12/18;15:01:40;17.25;0.504;0.24;-0.844;9.32;33.5;8.0;-1816;-0.9;134.3;12.90;12.3;
34.086989073944;-117.810081536297;20:05:29.77;3/12/2018;10;1.271;272.56;11.892073294907;0.85;232.3;249.67;4.1;-6.2;21.7;.03;7.15;7.18;87;41;400.3;16;-2.5;D;647.2;0;11.630;1.9455;1.05;170;122.63;-117.80997541;34.08693254;0;0;1;N;4.423263;82;82;11;5;5;122.8982;0;9999.99;7.19;7.317;2;9;18.3;0;17.25;0.24;1473.8536;03/12/18;15:01:40;17.25;0.504;0.24;-0.844;9.32;33.5;8.0;-1816;-0.9;134.3;12.90;12.3;
34.0869888788103;-117.810085694621;20:05:30.27;3/12/2018;10;1.252;262.3;11.892073294907;0.85;227.1;244.27;4;-5.6;21.6;.03;7.10;7.13;87;41;400.3;16;-2.5;D;647.2;0;11.944;1.9455;1.11;170;121.55;-117.80997541;34.08693254;0;0;1;N;4.423263;81;81;11;5;5;121.8059;0;9999.99;7.14;7.267;2;9;18.3;0;17.24;0.24;1473.82053;03/12/18;15:01:41;17.24;0.505;0.24;-0.840;9.32;31.4;7.5;-342;-0.2;134.2;12.89;12.2;
34.0869876230258;-117.81008840515;20:05:30.77;3/12/2018;10;1.252;262.3;11.892073294907;0.85;222.9;239.89;4.3;-5.6;21.6;.03;7.10;7.13;87;41;400.3;16;-2.5;D;647.2;0;12.087;1.9455;1.11;170;120.37;-117.80997541;34.08693254;0;0;1;N;4.423263;83;83;11;5;5;120.6646;0;9999.99;7.14;7.267;2;9;18.3;0;17.24;0.24;1473.82053;03/12/18;15:01:41;17.24;0.505;0.24;-0.840;9.32;31.4;7.5;-342;-0.2;134.2;12.89;12.2;
34.0869867922406;-117.810092452203;20:05:31.27;3/12/2018;10;1.261;253.92;11.892073294907;0.85;216.8;233.5;4.3;-5.7;21.6;.03;6.93;6.96;87;41;400.3;16;-2.5;D;647.2;0;12.365;1.9455;1.1;170;119.12;-117.80997541;34.08693254;0;0;1;N;4.423263;83;83;11;5;5;119.4607;0;9999.99;6.97;7.097;2;9;18.3;0;17.24;0.24;1473.82106;03/12/18;15:01:42;17.24;0.505;0.24;-0.851;9.32;26.1;6.2;194266;92.4;134.3;12.89;14.1;
34.0869852747342;-117.810094668794;20:05:31.77;3/12/2018;10;1.261;253.92;11.892073294907;0.85;211.8;228.24;4.1;-6.3;21.6;.03;6.93;6.96;87;41;400.3;16;-2.5;D;647.2;0;12.464;1.9455;1.1;170;117.99;-117.80997541;34.08693254;0;0;1;N;4.423263;82;82;11;5;5;118.2554;0;9999.99;6.97;7.097;2;9;18.3;0;17.24;0.24;1473.82106;03/12/18;15:01:42;17.24;0.505;0.24;-0.851;9.32;26.1;6.2;194266;92.4;134.3;12.89;14.1;
34.0869835592746;-117.810098446055;20:05:32.28;3/12/2018;10;1.251;243.79;11.892073294907;0.85;205.4;221.5;4.2;-6.9;21.6;.03;6.85;6.88;87;41;400.2;16;-2.5;D;647.6;0;12.687;1.9455;1.14;170;116.49;-117.80997541;34.08693254;0;0;1;N;4.423263;82;82;11;5;5;116.8937;0;9999.99;6.89;7.017;2;9;18.3;0;17.24;0.24;1473.82069;03/12/18;15:01:43;17.24;0.505;0.24;-0.848;9.32;25.1;6.0;229036;109.0;134.3;12.90;14.1;
34.0869817594207;-117.81010019578;20:05:32.78;3/12/2018;10;1.251;243.79;11.892073294907;0.85;202.2;218.13;4.2;-6.6;21.6;.03;6.85;6.88;87;41;400.2;16;-2.5;D;647.6;0;12.745;1.9455;1.14;170;115.36;-117.80997541;34.08693254;0;0;1;N;4.423263;82;82;11;5;5;115.6447;0;9999.99;6.89;7.017;2;9;18.3;0;17.24;0.24;1473.82069;03/12/18;15:01:43;17.24;0.505;0.24;-0.848;9.32;25.1;6.0;229036;109.0;134.3;12.90;14.1;
34.0869797404551;-117.810103233051;20:05:33.30;3/12/2018;10;1.246;233.75;11.892073294907;0.85;196.5;212.12;4.5;-6.3;21.6;.03;6.55;6.58;87;41;400.2;16;-2.5;D;647.6;0;12.907;1.9455;1.17;170;113.93;-117.80997541;34.08693254;0;0;1;N;7.277035E-02;84;84;11;5;5;114.1824;0;9999.99;6.59;6.717;2;9;18.3;0;17.23;0.24;1473.78764;03/12/18;15:01:44;17.23;0.504;0.24;-0.854;9.32;21.9;5.2;221646;105.5;134.4;12.91;14.2;
34.0869773232781;-117.810104726718;20:05:33.80;3/12/2018;10;1.246;233.75;11.892073294907;0.85;192.1;207.49;4.4;-6.7;21.6;.03;6.55;6.58;87;41;400.2;16;-2.5;D;647.6;0;12.927;1.9455;1.17;172;112.6;-117.80997541;34.08693254;0;0;1;N;0.3565478;83;83;11;5;5;112.0699;0;9999.99;6.59;6.717;2;9;18.3;0;17.23;0.24;1473.78764;03/12/18;15:01:44;17.23;0.504;0.24;-0.854;9.32;21.9;5.2;221646;105.5;134.4;12.91;14.2;
34.0869751715545;-117.810107080116;20:05:34.30;3/12/2018;10;1.291;224.17;11.892073294907;0.85;186;201.07;4.4;-5.8;21.6;.03;6.24;6.27;87;41;400.2;16;-2.5;D;647.6;0;13.040;1.9455;1.2;172;111.26;-117.80997541;34.08693254;0;0;1;N;0.6592556;83;83;11;5;5;110.001;0;9999.99;6.28;6.407;2;9;18.4;0;17.22;0.24;1473.7547;03/12/18;15:01:45;17.22;0.505;0.24;-0.841;9.32;19.1;4.5;241756;115.0;134.4;12.91;14.2;
34.0869724875919;-117.810107908382;20:05:34.80;3/12/2018;10;1.291;224.17;11.892073294907;0.85;180.8;195.61;4.6;-5.8;21.6;.03;6.24;6.27;87;41;400.2;16;-2.5;D;647.6;0;13.006;1.9455;1.2;174;109.92;-117.80997541;34.08693254;0;0;1;N;0.9664237;84;84;11;5;5;107.8297;0;9999.99;6.28;6.407;2;9;18.4;0;17.22;0.24;1473.7547;03/12/18;15:01:45;17.22;0.505;0.24;-0.841;9.32;19.1;4.5;241756;115.0;134.4;12.91;14.2;
34.0869697058112;-117.810110096844;20:05:35.30;3/12/2018;10;1.343;213.24;11.892073294907;0.85;177.1;191.73;4.5;-6.1;21.6;.03;5.84;5.87;87;41;400.2;16;-2.5;D;647.6;0;13.096;1.9455;1.24;174;108.35;-117.80997541;34.08693254;0;0;1;N;1.255743;84;84;11;5;5;105.5706;0;9999.99;5.88;6.007;2;9;18.3;0;17.21;0.25;1473.73306;03/12/18;15:01:46;17.21;0.505;0.25;-0.853;9.32;21.2;5.0;229506;109.2;134.5;12.93;14.1;
34.0869671990675;-117.810110304414;20:05:35.80;3/12/2018;10;1.343;213.24;11.892073294907;0.85;170.6;184.92;4.4;-5;21.6;.04;5.84;5.88;87;43;400.2;16;-2.7;D;615.3;0;13.030;1.9455;1.24;175;107.16;-117.80997541;34.08693254;0;0;1;N;1.603291;83;83;11;5;5;103.4165;0;9999.99;5.88;6.007;2;9;18.3;0;17.21;0.25;1473.73306;03/12/18;15:01:46;17.21;0.505;0.25;-0.853;9.32;21.2;5.0;229506;109.2;134.5;12.93;14.1;
34.0869633352519;-117.81011161865;20:05:36.30;3/12/2018;10;1.41;203.06;11.892073294907;0.85;164.9;178.97;4.3;-4.2;21.6;.03;5.52;5.55;87;43;400.2;16;-2.7;D;615.3;0;13.027;1.9455;1.31;175;105.2;-117.80997541;34.08693254;0;0;1;N;1.931119;83;83;11;5;5;100.9629;0;9999.99;5.56;5.687;2;9;18.4;0;17.24;0.25;1473.83251;03/12/18;15:01:47;17.24;0.506;0.25;-0.837;9.32;17.1;4.1;266761;126.9;134.5;12.92;14.0;
34.0869606124749;-117.810111229195;20:05:36.80;3/12/2018;10;1.41;203.06;11.892073294907;0.85;161;174.91;4.4;-4.2;21.6;.03;5.52;5.55;87;43;400.2;16;-2.7;D;615.3;0;12.916;1.9455;1.31;177;103.95;-117.80997541;34.08693254;0;0;1;N;2.296567;83;83;11;5;5;98.49751;0;9999.99;5.56;5.687;2;9;18.4;0;17.24;0.25;1473.83251;03/12/18;15:01:47;17.24;0.506;0.25;-0.837;9.32;17.1;4.1;266761;126.9;134.5;12.92;14.0;
34.0869578333333;-117.810112166667;20:05:37.30;3/12/2018;10;1.331;192.93;11.892073294907;0.85;154.3;167.94;4.3;-4.1;21.6;.03;5.13;5.16;87;43;400.2;16;-2.7;D;615.3;0;12.774;1.9455;1.31;177;102.59;-117.80997541;34.08693254;0;0;1;N;2.572389;83;83;11;5;5;96.68125;0;9999.99;5.17;5.297;2;9;18.3;0;17.29;0.24;1473.98601;03/12/18;15:01:48;17.29;0.505;0.24;-0.860;9.32;15.0;3.6;226290;107.7;134.6;12.91;14.2;
34.0869548760622;-117.810110952518;20:05:37.81;3/12/2018;11;1.331;192.93;11.892073294907;0.85;150.1;163.57;4.3;-3.9;21.6;.03;5.13;5.16;87;43;400.2;16;-2.7;D;615.3;0;12.752;1.9455;1.35;178;101.2;-117.80997541;34.08693254;0;0;1;N;2.874873;83;83;11;5;5;94.73135;0;9999.99;5.17;5.297;2;9;18.3;0;17.29;0.24;1473.98601;03/12/18;15:01:48;17.29;0.505;0.24;-0.860;9.32;15.0;3.6;226290;107.7;134.6;12.91;14.2;
34.0869504608334;-117.810110039899;20:05:38.34;3/12/2018;11;1.549;178.82;11.892073294907;0.89;143.1;156.31;4.5;-3.9;21.6;.03;4.85;4.88;87;43;400.2;16;-2.7;D;615.3;0;12.583;1.9455;1.39;178;99.09;-117.80997541;34.08693254;0;0;1;N;3.170306;84;84;11;5;5;92.77637;0;9999.99;4.89;5.017;2;9;18.4;0;17.35;0.25;1474.19529;03/12/18;15:01:49;17.35;0.506;0.25;-0.837;9.32;14.6;3.5;209487;99.7;134.6;12.89;14.1;
34.086947829654;-117.810108053741;20:05:38.86;3/12/2018;11;1.549;178.82;11.892073294907;0.89;137.8;150.81;4.4;-3;21.6;.03;4.85;4.88;87;43;400.2;16;-2.7;D;615.3;0;12.359;1.9455;1.39;179;97.89;-117.80997541;34.08693254;0;0;1;N;3.490707;83;83;11;5;5;90.90539;0;9999.99;4.89;5.017;2;9;18.4;0;17.35;0.25;1474.19529;03/12/18;15:01:49;17.35;0.506;0.25;-0.837;9.32;14.6;3.5;209487;99.7;134.6;12.89;14.1;
34.0869430452655;-117.810106177574;20:05:39.38;3/12/2018;11;1.662;167.13;11.892073294907;0.85;131.4;144.17;4.7;-2.7;21.6;.03;4.54;4.57;87;43;400.2;16;-2.7;D;615.3;0;12.125;1.9455;1.45;179;95.52;-117.80997541;34.08693254;0;0;1;N;3.913956;85;85;11;5;5;88.39657;0;9999.99;4.58;4.707;2;9;18.3;0;17.41;0.25;1474.39307;03/12/18;15:01:50;17.41;0.506;0.25;-0.850;9.32;15.3;3.6;217696;103.6;134.7;12.89;14.1;
34.0869409044285;-117.810103731353;20:05:39.88;3/12/2018;11;1.662;167.13;11.892073294907;0.85;127.5;140.12;4.5;-2.4;21.6;.03;4.54;4.57;87;49;400.2;16;-3;D;542.3;0;11.879;1.9455;1.45;179;94.48;-117.80997541;34.08693254;0;0;1;N;4.041447;84;84;11;5;5;87.66003;0;9999.99;4.58;4.707;2;9;18.3;0;17.41;0.25;1474.39307;03/12/18;15:01:50;17.41;0.506;0.25;-0.850;9.32;15.3;3.6;217696;103.6;134.7;12.89;14.1;
34.0869367488948;-117.810101040799;20:05:40.39;3/12/2018;11;1.598;156.69;11.892073294907;0.85;121.4;133.78;4.8;-3.5;21.6;.03;4.29;4.32;87;49;400.2;16;-3;D;542.3;0;11.604;1.9455;1.5;179;92.31;-117.80997541;34.08693254;0;0;1;N;4.363747;86;86;11;5;5;85.84161;0;9999.99;4.33;4.457;2;9;18.4;0;17.46;0.25;1474.55776;03/12/18;15:01:51;17.46;0.506;0.25;-0.844;9.32;14.5;3.5;254429;121.1;134.7;12.88;14.0;
34.0869348079055;-117.810097589893;20:05:40.89;3/12/2018;11;1.598;156.69;11.892073294907;0.85;115;127.11;4.5;-4;21.6;.03;4.29;4.32;87;49;400.2;16;-3;D;542.3;0;11.279;1.9455;1.5;180;91.28;-117.80997541;34.08693254;0;0;1;N;4.438516;84;84;11;5;5;85.42715;0;9999.99;4.33;4.457;2;9;18.4;0;17.46;0.25;1474.55776;03/12/18;15:01:51;17.46;0.506;0.25;-0.844;9.32;14.5;3.5;254429;121.1;134.7;12.88;14.0;
34.0869313178221;-117.810094401865;20:05:41.41;3/12/2018;11;1.71;144.67;11.892073294907;0.85;108.3;120.12;4.9;-3.6;21.7;.03;4.08;4.11;87;49;400.2;16;-3;D;542.3;0;10.983;1.9455;1.57;180;89.29;-117.80997541;34.08693254;0;0;1;N;4.675443;85;85;11;5;5;84.13882;0;9999.99;4.12;4.247;2;9;18.3;0;17.5;0.25;1474.68916;03/12/18;15:01:52;17.50;0.506;0.25;-0.840;9.32;16.1;3.8;233044;110.9;134.8;12.88;14.1;
34.0869299001613;-117.810090379904;20:05:41.91;3/12/2018;11;1.71;144.67;11.892073294907;0.85;104.8;116.46;4.4;-4.3;21.7;.04;4.08;4.12;87;49;400.2;16;-3;D;542.3;0;10.615;1.9455;1.57;180;88.42;-117.80997541;34.08693254;0;0;1;N;4.674623;83;83;11;5;5;84.14142;0;9999.99;4.12;4.247;2;9;18.3;0;17.5;0.25;1474.68916;03/12/18;15:01:52;17.50;0.506;0.25;-0.840;9.32;16.1;3.8;233044;110.9;134.8;12.88;14.1;
34.0869269087395;-117.810086574798;20:05:42.41;3/12/2018;11;1.773;134.69;11.892073294907;0.85;98.1;109.44;4.4;-3.8;21.7;.03;3.97;4.00;87;49;400.2;16;-3;D;542.3;0;10.278;1.9455;1.63;180;86.52;-117.80997541;34.08693254;0;0;1;N;4.841956;83;83;11;22;22;83.25045;0;9999.99;4.01;4.137;2;9;18.3;0;17.53;0.25;1474.78791;03/12/18;15:01:53;17.53;0.506;0.25;-0.840;9.32;21.6;5.1;216222;102.9;134.8;12.87;14.1;
34.0869262137482;-117.810082541698;20:05:42.91;3/12/2018;11;1.773;134.69;11.892073294907;0.85;94;105.14;4.7;-3;21.7;.03;3.97;4.00;87;49;400.2;16;-3;D;542.3;0;9.912;1.9455;1.63;181;85.94;-117.80997541;34.08693254;0;0;1;N;4.767826;85;85;11;41;41;83.64056;0;9999.99;4.01;4.137;2;9;18.3;0;17.53;0.25;1474.78791;03/12/18;15:01:53;17.53;0.506;0.25;-0.840;9.32;21.6;5.1;216222;102.9;134.8;12.87;14.1;
34.0869236709807;-117.810077455297;20:05:43.41;3/12/2018;11;1.855;125.55;11.892073294907;0.85;88.4;99.27;4.9;-1.9;21.7;.03;3.91;3.94;87;53;400.1;16;-3.3;D;501.1;0;9.469;1.9455;1.68;181;84.04;-117.80997541;34.08693254;0;0;1;N;4.834636;86;86;11;63;63;83.28478;0;9999.99;3.95;4.077;2;9;18.3;0;17.56;0.25;1474.88619;03/12/18;15:01:54;17.56;0.506;0.25;-0.850;9.31;26.0;6.2;224362;106.7;134.9;12.87;14.2;
34.0869235161507;-117.810073210916;20:05:43.91;3/12/2018;11;1.855;125.55;11.892073294907;0.85;83.6;94.23;4.6;0.8;21.7;.03;3.91;3.94;87;53;400.1;16;-3.3;D;501.1;0;9.081;1.9455;1.68;181;83.67;-117.80997541;34.08693254;0;0;1;N;4.698709;85;85;11;80;80;84.00448;0;9999.99;3.95;4.077;2;9;18.3;0;17.56;0.25;1474.88619;03/12/18;15:01:54;17.56;0.506;0.25;-0.850;9.31;26.0;6.2;224362;106.7;134.9;12.87;14.2;
34.0869218862358;-117.810068090357;20:05:44.41;3/12/2018;11;1.924;111.71;11.892073294907;0.85;80;90.45;4.6;3.8;21.7;.03;4.18;4.21;87;53;400.1;16;-3.3;D;501.1;0;8.635;1.9455;1.79;181;82.13;-117.80997541;34.08693254;0;0;1;N;4.512282;85;85;11;102;102;84.17348;0;9999.99;4.22;4.347;2;9;18.4;0;17.59;0.24;1474.97312;03/12/18;15:01:55;17.59;0.505;0.24;-0.846;9.31;25.4;6.0;137978;65.6;135.0;12.87;14.0;
34.0869222435329;-117.810063130647;20:05:44.91;3/12/2018;11;1.924;111.71;11.892073294907;0.85;76.8;87.09;4.5;5.1;21.8;.03;4.18;4.21;87;53;400.1;16;-3.3;D;501.1;0;8.176;1.9455;1.79;181;81.97;-117.80997541;34.08693254;0;0;1;N;4.455872;86;86;11;117;117;85.31575;0;9999.99;4.22;4.347;2;9;18.4;0;17.59;0.24;1474.97312;03/12/18;15:01:55;17.59;0.505;0.24;-0.846;9.31;25.4;6.0;137978;65.6;135.0;12.87;14.0;
34.0869216248417;-117.810056521909;20:05:45.41;3/12/2018;11;2.127;99.26;11.892073294907;0.85;75.2;85.41;4.2;6.9;21.8;.03;4.43;4.46;87;53;400.1;16;-3.3;D;501.1;0;7.583;1.9455;1.89;181;80.81;-117.80997541;34.08693254;0;0;1;N;4.216989;83;83;11;128;128;86.34164;0;9999.99;4.47;4.597;2;9;18.4;0;17.61;0.25;1475.04991;03/12/18;15:01:56;17.61;0.506;0.25;-0.827;9.31;25.3;6.0;152525;72.6;135.0;12.86;14.2;
34.0869222168995;-117.810051290292;20:05:45.91;3/12/2018;11;2.127;99.26;11.892073294907;0.85;74.1;84.26;3.9;6.8;21.8;.03;4.43;4.46;87;53;400.1;16;-3.3;D;501.1;0;7.096;1.9455;1.89;181;80.71;-117.80997541;34.08693254;0;0;1;N;4.005026;80;80;11;141;141;87.84452;0;9999.99;4.47;4.597;2;9;18.4;0;17.61;0.25;1475.04991;03/12/18;15:01:56;17.61;0.506;0.25;-0.827;9.31;25.3;6.0;152525;72.6;135.0;12.86;14.2;
34.0869225878647;-117.810043233334;20:05:46.41;3/12/2018;11;2.217;90.36;11.892073294907;0.89;74.5;84.68;3.3;6;21.8;.03;4.38;4.40;87;53;400.1;16;-3.3;D;501.1;0;6.356;1.9455;2.01;181;80;-117.80997541;34.08693254;0;0;1;N;3.660741;77;77;11;148;148;89.85503;0;9999.99;4.41;4.537;2;9;18.4;0;17.62;0.25;1475.08208;03/12/18;15:01:57;17.62;0.505;0.25;-0.805;9.31;33.9;8.1;148673;70.7;135.0;12.87;14.0;
34.0869231006485;-117.810038367231;20:05:46.91;3/12/2018;11;2.217;90.36;11.892073294907;0.89;74.5;84.68;3.1;4.9;21.8;.02;4.38;4.40;87;53;400.1;16;-3.3;D;501.1;0;5.904;1.9455;2.01;181;79.78;-117.80997541;34.08693254;0;0;1;N;3.4232;76;76;11;153;153;91.28151;0;9999.99;4.41;4.537;2;9;18.4;0;17.62;0.25;1475.08208;03/12/18;15:01:57;17.62;0.505;0.25;-0.805;9.31;33.9;8.1;148673;70.7;135.0;12.87;14.0;
34.086924284449;-117.810030616636;20:05:47.41;3/12/2018;10;2.256;86.53;11.892073294907;0.89;75;85.2;3;5.7;21.8;.02;4.22;4.25;87;54;400.1;16;-3.3;D;489.8;1;52.697;1.9455;2.08;181;349.35;-117.81013618;34.08739117;0;0;1;N;3.025198;75;75;11;5;5;15.98503;0;9999.99;4.25;4.377;2;9;18.4;0;17.64;0.25;1475.1468;03/12/18;15:01:58;17.64;0.506;0.25;-0.800;9.31;35.6;8.5;233868;111.3;135.1;12.87;14.2;
34.0869248138693;-117.810024844492;20:05:47.91;3/12/2018;10;2.256;86.53;11.892073294907;0.89;75.5;85.73;2.5;7.4;21.8;.02;4.22;4.24;87;54;400.1;16;-3.3;D;489.8;1;52.741;1.9455;2.08;181;348.77;-117.81013618;34.08739117;0;0;1;N;4.751664;72;72;11;5;5;14.38481;0;9999.99;4.25;4.377;2;9;18.4;0;17.64;0.25;1475.1468;03/12/18;15:01:58;17.64;0.506;0.25;-0.800;9.31;35.6;8.5;233868;111.3;135.1;12.87;14.2;
34.0869266180383;-117.810018365882;20:05:48.41;3/12/2018;11;2.276;81.62;11.892073294907;0.85;75.3;85.52;1.9;-6.6;21.7;.02;4.17;4.19;87;54;400.1;16;-3.3;D;489.8;1;52.665;1.9455;2.14;181;348.09;-117.81013618;34.08739117;0;0;1;N;4.125847;68;68;11;5;5;10.97207;0;9999.99;4.19;4.317;2;9;18.4;0;17.66;0.24;1475.20032;03/12/18;15:01:59;17.66;0.505;0.24;-0.802;9.31;41.5;9.9;213547;101.6;135.1;12.87;14.1;
34.0869275288031;-117.810012494182;20:05:48.91;3/12/2018;11;2.276;81.62;11.892073294907;0.85;69.2;79.13;1.6;-6.4;21.7;.02;4.17;4.19;87;54;400.1;16;-3.3;D;489.8;1;52.681;1.9455;2.14;181;347.49;-117.81013618;34.08739117;0;0;1;N;3.57867;66;66;11;5;5;7.80491;0;9999.99;4.19;4.317;2;9;18.4;0;17.66;0.24;1475.20032;03/12/18;15:01:59;17.66;0.505;0.24;-0.802;9.31;41.5;9.9;213547;101.6;135.1;12.87;14.1;
34.0869282177434;-117.81000773295;20:05:49.41;3/12/2018;11;2.019;84.38;11.892073294907;0.85;64.3;74.01;2.2;1;21.7;.03;3.77;3.80;87;54;400.1;16;-3.3;D;489.8;1;52.703;1.9455;2.08;181;347;-117.81013618;34.08739117;0;0;1;N;3.11565;70;70;11;5;5;4.995792;0;9999.99;3.79;3.917;2;9;18.4;0;17.67;0.24;1475.23459;03/12/18;15:02:00;17.67;0.505;0.24;-0.789;9.31;39.8;9.5;188976;89.9;135.1;12.86;14.1;
34.0869298768208;-117.810003078432;20:05:49.91;3/12/2018;11;2.019;84.38;11.892073294907;0.85;56.8;66.21;4.2;4.8;21.7;.03;3.77;3.80;87;54;400.1;16;-3.3;D;489.8;1;52.622;1.9455;2.08;181;346.5;-117.81013618;34.08739117;0;0;1;N;2.649106;82;82;11;5;5;2.052387;0;9999.99;3.79;3.917;2;9;18.4;0;17.67;0.24;1475.23459;03/12/18;15:02:00;17.67;0.505;0.24;-0.789;9.31;39.8;9.5;188976;89.9;135.1;12.86;14.1;
34.0869308583024;-117.809998102797;20:05:50.41;3/12/2018;11;1.894;77;11.892073294907;0.85;50.1;59.3;4.9;0;21.7;.03;4.41;4.44;87;54;400.1;16;-3.3;D;489.8;1;52.626;1.9455;1.97;181;345.99;-117.81013618;34.08739117;0;0;1;N;2.169634;86;86;11;5;5;358.9191;0;9999.99;4.45;4.577;2;9;18.4;0;17.68;0.24;1475.26779;03/12/18;15:02:01;17.68;0.505;0.24;-0.847;9.31;47.2;11.2;235466;112.0;135.1;12.86;14.1;
34.0869331914346;-117.80999420225;20:05:50.91;3/12/2018;11;1.894;77;11.892073294907;0.85;44.7;53.76;5.1;-3.8;21.7;.03;4.41;4.44;87;54;400.1;15.9;-3.4;D;487.9;1;52.463;1.9455;1.97;181;345.54;-117.81013618;34.08739117;0;0;1;N;1.747773;88;88;11;5;5;356.0822;0;9999.99;4.45;4.577;2;9;18.4;0;17.68;0.24;1475.26779;03/12/18;15:02:01;17.68;0.505;0.24;-0.847;9.31;47.2;11.2;235466;112.0;135.1;12.86;14.1;
34.086934954987;-117.809990042924;20:05:51.41;3/12/2018;11;1.879;66.54;11.892073294907;0.85;36.5;45.45;4.9;-8.2;21.7;.03;4.30;4.33;87;54;400.1;15.9;-3.4;D;487.9;1;52.372;1.9455;1.93;181;345.08;-117.81013618;34.08739117;0;0;1;N;1.30125;86;86;11;5;5;353.1545;0;9999.99;4.34;4.467;2;9;18.4;0;17.68;0.24;1475.26837;03/12/18;15:02:02;17.68;0.505;0.24;-0.832;9.31;48.2;11.5;222858;106.0;135.2;12.87;14.1;
34.0869391840737;-117.809985630309;20:05:51.94;3/12/2018;11;1.879;66.54;11.892073294907;0.85;31.8;40.74;4.6;-7.7;21.7;.04;4.30;4.33;87;54;400.1;15.9;-3.4;D;487.9;1;52.026;1.9455;1.93;181;344.51;-117.81013618;34.08739117;0;0;1;N;0.8007431;85;85;11;5;5;349.5036;0;9999.99;4.34;4.467;2;9;18.4;0;17.68;0.24;1475.26837;03/12/18;15:02:02;17.68;0.505;0.24;-0.832;9.31;48.2;11.5;222858;106.0;135.2;12.87;14.1;
34.0869411264449;-117.809980837945;20:05:52.44;3/12/2018;11;1.706;60.11;11.892073294907;0.85;24.5;33.5;4.1;-4.4;21.7;.03;4.60;4.63;87;54;400.1;15.9;-3.4;D;487.9;1;51.938;1.9455;1.88;181;343.98;-117.81013618;34.08739117;0;0;1;N;0.3077282;83;83;11;5;5;346.0053;0;9999.99;4.64;4.767;2;9;18.4;0;17.69;0.24;1475.30082;03/12/18;15:02:03;17.69;0.505;0.24;-0.841;9.31;49.7;11.8;212671;101.2;135.2;12.87;14.0;
34.0869448366844;-117.809978416084;20:05:52.95;3/12/2018;11;1.706;60.11;11.892073294907;0.85;18.5;27.63;3.7;-2.5;21.7;.03;4.60;4.63;87;54;400.1;15.9;-3.4;D;487.9;1;51.606;1.9455;1.88;181;343.61;-117.81013618;34.08739117;0;0;1;N;4.516744E-02;79;79;11;5;5;343.489;0;9999.99;4.64;4.767;2;9;18.4;0;17.69;0.24;1475.30082;03/12/18;15:02:03;17.69;0.505;0.24;-0.841;9.31;49.7;11.8;212671;101.2;135.2;12.87;14.0;
34.0869472362335;-117.809974256817;20:05:53.45;3/12/2018;11;1.862;47.75;11.892073294907;0.85;12.1;21.46;3.6;-2.3;21.7;.03;5.46;5.48;87;54;400.1;15.9;-3.4;D;487.9;1;51.461;1.9455;1.86;181;343.12;-117.81013618;34.08739117;0;0;1;N;0.4914405;79;79;11;5;5;340.3091;0;9999.99;5.49;5.617;2;9;18.5;0;17.69;0.24;1475.29956;03/12/18;15:02:04;17.69;0.505;0.24;-0.841;9.31;52.1;12.4;225713;107.4;135.3;12.87;14.2;
34.0869517463816;-117.809972588976;20:05:53.97;3/12/2018;11;1.862;47.75;11.892073294907;0.85;5.7;15.36;3.8;-2.8;21.7;.02;5.46;5.48;87;54;400.1;15.9;-3.4;D;487.9;1;51.027;1.9455;1.86;181;342.79;-117.81013618;34.08739117;0;0;1;N;0.7938859;80;80;11;5;5;338.1644;0;9999.99;5.49;5.617;2;9;18.5;0;17.69;0.24;1475.29956;03/12/18;15:02:04;17.69;0.505;0.24;-0.841;9.31;52.1;12.4;225713;107.4;135.3;12.87;14.2;
34.0869555219458;-117.809968707364;20:05:54.48;3/12/2018;11;1.818;38.18;11.892073294907;0.85;358.6;8.7;4.2;-2;21.7;.03;5.97;6.00;87;54;400.1;15.9;-3.4;D;487.9;1;50.735;1.9455;1.82;181;342.26;-117.81013618;34.08739117;0;0;1;N;1.258616;82;82;11;5;5;334.9011;0;9999.99;6.01;6.137;2;9;18.4;0;17.69;0.24;1475.2997;03/12/18;15:02:05;17.69;0.505;0.24;-0.844;9.31;54.2;12.9;212862;101.3;135.3;12.87;14.1;
34.0869597321185;-117.809968386969;20:05:55.00;3/12/2018;11;1.818;38.18;11.892073294907;0.85;351.1;1.76;4.4;-2.8;21.7;.03;5.97;6.00;87;55;400.0;15.9;-3.4;D;476.7;1;50.300;1.9455;1.82;181;342.07;-117.81013618;34.08739117;0;0;1;N;1.430966;83;83;11;15;15;333.7041;0;9999.99;6.01;6.137;2;9;18.4;0;17.69;0.24;1475.2997;03/12/18;15:02:05;17.69;0.505;0.24;-0.844;9.31;54.2;12.9;212862;101.3;135.3;12.87;14.1;
34.0869625477284;-117.809966723952;20:05:55.50;3/12/2018;11;1.798;25.07;11.892073294907;0.85;343.5;354.81;4.7;-3.5;21.7;.03;6.21;6.24;87;55;400.0;15.9;-3.4;D;476.7;1;50.051;1.9455;1.77;181;341.79;-117.81013618;34.08739117;0;0;1;N;1.674209;84;84;11;26;26;332.0298;0;9999.99;6.25;6.377;2;9;18.5;0;17.69;0.24;1475.29964;03/12/18;15:02:06;17.69;0.505;0.24;-0.844;9.31;53.7;12.8;233875;111.3;135.2;12.86;14.1;
34.0869666104329;-117.809967346755;20:05:56.00;3/12/2018;11;1.798;25.07;11.892073294907;0.85;338.8;350.55;4.7;-3.8;21.7;.03;6.21;6.24;87;55;400.0;15.9;-3.4;D;476.7;1;49.605;1.9455;1.77;181;341.69;-117.81013618;34.08739117;0;0;1;N;1.758479;85;85;11;51;51;331.4543;0;9999.99;6.25;6.377;2;9;18.5;0;17.69;0.24;1475.29964;03/12/18;15:02:06;17.69;0.505;0.24;-0.844;9.31;53.7;12.8;233875;111.3;135.2;12.86;14.1;
34.0869704649109;-117.809966552303;20:05:56.50;3/12/2018;11;1.837;11.61;11.892073294907;0.85;332.1;344.52;4.7;-1.5;21.7;.03;6.42;6.45;87;55;400.0;15.9;-3.4;D;476.7;1;49.222;1.9455;1.74;181;341.46;-117.81013618;34.08739117;0;0;1;N;1.959525;85;85;11;69;69;330.0915;0;9999.99;6.46;6.587;2;9;18.5;0;17.67;0.24;1475.23454;03/12/18;15:02:07;17.67;0.504;0.24;-0.851;9.31;57.9;13.8;245297;116.7;135.2;12.87;14.1;
34.0869738477762;-117.809967751053;20:05:57.00;3/12/2018;11;1.837;11.61;11.892073294907;0.85;327.8;340.66;4.7;1;21.7;.03;6.42;6.45;87;55;400.0;15.9;-3.4;D;476.7;1;48.831;1.9455;1.74;181;341.44;-117.81013618;34.08739117;0;0;1;N;1.964965;85;85;11;85;85;330.0549;0;9999.99;6.46;6.587;2;9;18.5;0;17.67;0.24;1475.23454;03/12/18;15:02:07;17.67;0.504;0.24;-0.851;9.31;57.9;13.8;245297;116.7;135.2;12.87;14.1;
34.0869793546484;-117.809968295238;20:05:57.50;3/12/2018;11;1.91;0.5;11.892073294907;0.85;323.5;336.8;4.6;3.5;21.7;.03;6.70;6.73;87;55;400.0;15.9;-3.4;D;476.7;1;48.236;1.9455;1.77;181;341.26;-117.81013618;34.08739117;0;0;1;N;2.093541;85;85;11;97;97;329.1917;0;9999.99;6.74;6.867;2;9;18.5;0;17.62;0.24;1475.07116;03/12/18;15:02:08;17.62;0.503;0.24;-0.839;9.31;56.0;13.3;232510;110.6;135.2;12.89;14.2;
34.0869835721121;-117.809970554331;20:05:58.02;3/12/2018;11;1.91;0.5;11.892073294907;0.85;319.1;332.86;4.4;4.6;21.7;.03;6.70;6.73;87;55;400.0;15.9;-3.4;D;476.7;1;47.726;1.9455;1.77;181;341.32;-117.81013618;34.08739117;0;0;1;N;2.033486;83;83;11;114;114;329.5941;0;9999.99;6.74;6.867;2;9;18.5;0;17.62;0.24;1475.07116;03/12/18;15:02:08;17.62;0.503;0.24;-0.839;9.31;56.0;13.3;232510;110.6;135.2;12.89;14.2;
34.0869884669818;-117.809972073427;20:05:58.53;3/12/2018;11;1.985;348.27;11.892073294907;0.85;318;331.87;4.2;5.7;21.8;.03;6.85;6.88;87;56;400.0;15.9;-3.5;D;474.4;1;47.167;1.9455;1.83;181;341.27;-117.81013618;34.08739117;0;0;1;N;2.055756;82;82;11;117;117;329.4447;0;9999.99;6.89;7.017;2;9;18.5;0;17.53;0.24;1474.77613;03/12/18;15:02:09;17.53;0.503;0.24;-0.832;9.32;56.1;13.4;218096;103.8;135.2;12.90;14.1;
34.0869922411243;-117.809974375389;20:05:59.03;3/12/2018;11;1.985;348.27;11.892073294907;0.85;316.3;330.35;3.9;4.6;21.7;.03;6.85;6.88;87;56;400.0;15.9;-3.5;D;474.4;1;46.703;1.9455;1.83;181;341.35;-117.81013618;34.08739117;0;0;1;N;1.969607;80;80;11;126;126;330.0236;0;9999.99;6.89;7.017;2;9;18.5;0;17.53;0.24;1474.77613;03/12/18;15:02:09;17.53;0.503;0.24;-0.832;9.32;56.1;13.4;218096;103.8;135.2;12.90;14.1;
34.0869975418371;-117.809977046566;20:05:59.53;3/12/2018;11;2.072;339.8;11.892073294907;0.85;315;329.18;3.3;4.9;21.7;.03;7.02;7.04;87;56;400.0;15.9;-3.5;D;474.4;1;46.067;1.9455;1.88;181;341.41;-117.81013618;34.08739117;0;0;1;N;1.900005;77;77;11;132;132;330.4935;0;9999.99;7.05;7.177;2;9;18.5;0;17.45;0.24;1474.51312;03/12/18;15:02:10;17.45;0.504;0.24;-0.816;9.32;51.8;12.3;119591;56.9;135.1;12.91;14.3;
34.0870013422257;-117.809979624879;20:06:00.03;3/12/2018;11;2.072;339.8;11.892073294907;0.85;313.7;328.01;3;7;21.7;.03;7.02;7.04;87;56;400.0;15.9;-3.5;D;474.4;1;45.591;1.9455;1.88;181;341.52;-117.81013618;34.08739117;0;0;1;N;1.788342;75;75;11;140;140;331.251;0;9999.99;7.05;7.177;2;9;18.5;0;17.45;0.24;1474.51312;03/12/18;15:02:10;17.45;0.504;0.24;-0.816;9.32;51.8;12.3;119591;56.9;135.1;12.91;14.3;
34.0870060905108;-117.809983186789;20:06:00.56;3/12/2018;11;2.123;333.95;11.892073294907;0.85;312.2;326.67;2.7;6.8;21.7;.02;7.25;7.27;87;56;400.0;15.9;-3.5;D;474.4;1;44.988;1.9455;1.98;181;341.71;-117.81013618;34.08739117;0;0;1;N;1.624138;73;73;11;150;150;332.3729;0;9999.99;7.27;7.397;2;9;18.5;0;17.38;0.24;1474.28265;03/12/18;15:02:11;17.38;0.503;0.24;-0.791;9.32;51.1;12.2;205628;97.8;135.0;12.93;14.1;
34.087010391228;-117.809986316885;20:06:01.08;3/12/2018;11;2.123;333.95;11.892073294907;0.85;312.5;326.93;2.6;7.6;21.7;.02;7.42;7.44;87;56;400.0;15.9;-3.5;D;474.4;1;44.444;1.9455;1.98;181;341.87;-117.81013618;34.08739117;0;0;1;N;1.480139;73;73;11;153;153;333.3641;0;9999.99;7.44;7.567;2;9;18.5;0;17.38;0.24;1474.28265;03/12/18;15:02:11;17.38;0.503;0.24;-0.791;9.32;51.1;12.2;205628;97.8;135.0;12.93;14.1;
34.0870150718652;-117.809989680775;20:06:01.58;3/12/2018;11;2.139;331.23;11.892073294907;0.85;313.2;327.56;2.6;5.7;21.7;.02;7.42;7.44;87;56;400.0;15.9;-3.5;D;474.4;1;43.855;1.9455;2.02;181;342.04;-117.81013618;34.08739117;0;0;1;N;1.333101;73;73;11;154;154;334.3828;0;9999.99;7.44;7.567;2;9;18.5;0;17.31;0.24;1474.05105;03/12/18;15:02:12;17.31;0.503;0.24;-0.797;9.32;49.9;11.9;174133;82.8;134.9;12.94;14.2;
34.0870190486303;-117.809992646473;20:06:02.11;3/12/2018;11;2.139;331.23;11.892073294907;0.85;313.2;327.56;2.6;4.9;21.7;.02;7.42;7.44;87;54;400.0;15.9;-3.4;D;488.8;1;43.351;1.9455;2.02;181;342.21;-117.81013618;34.08739117;0;0;1;N;1.193849;73;73;11;158;158;335.3529;0;9999.99;7.44;7.567;2;9;18.5;0;17.31;0.24;1474.05105;03/12/18;15:02:12;17.31;0.503;0.24;-0.797;9.32;49.9;11.9;174133;82.8;134.9;12.94;14.2;
34.0870233485796;-117.809995366583;20:06:02.61;3/12/2018;11;2.019;329.5;11.892073294907;0.85;314;328.28;2.9;4.3;21.7;.02;7.57;7.59;87;54;400.0;15.9;-3.4;D;488.8;1;42.820;1.9455;2.03;181;342.33;-117.81013618;34.08739117;0;0;1;N;1.085337;74;74;11;158;158;336.1123;0;9999.99;7.59;7.717;2;9;18.5;0;17.24;0.24;1473.81918;03/12/18;15:02:13;17.24;0.503;0.24;-0.797;9.32;42.8;10.2;221558;105.4;134.8;12.94;14.1;
34.0870274097461;-117.809998236482;20:06:03.13;3/12/2018;11;2.019;329.5;11.892073294907;0.85;314.6;328.82;3;5.2;21.7;.03;7.81;7.84;87;54;400.0;15.9;-3.4;D;488.8;1;42.310;1.9455;2.04;181;342.49;-117.81013618;34.08739117;0;0;1;N;0.9560671;74;74;11;160;160;337.0205;0;9999.99;7.84;7.967;2;9;18.5;0;17.24;0.24;1473.81918;03/12/18;15:02:13;17.24;0.503;0.24;-0.797;9.32;42.8;10.2;221558;105.4;134.8;12.94;14.1;
34.0870322625782;-117.810001757674;20:06:03.63;3/12/2018;11;2.215;328.09;11.892073294907;0.85;316.9;330.89;3.4;4.5;21.7;.02;7.81;7.84;87;54;400.0;15.9;-3.4;D;488.8;1;41.700;1.9455;2.04;181;342.69;-117.81013618;34.08739117;0;0;1;N;0.7879151;77;77;11;159;159;338.2067;0;9999.99;7.84;7.967;2;9;18.5;0;17.17;0.24;1473.58848;03/12/18;15:02:14;17.17;0.503;0.24;-0.811;9.32;40.7;9.7;237757;113.1;134.7;12.95;14.2;
34.0870368505484;-117.810004648331;20:06:04.13;3/12/2018;11;2.215;328.09;11.892073294907;0.85;317.9;331.78;3;3.5;21.7;.02;7.81;7.83;87;54;400.0;15.9;-3.4;D;488.8;1;41.134;1.9455;2.04;181;342.84;-117.81013618;34.08739117;0;0;1;N;0.6713109;75;75;11;156;156;339.0321;0;9999.99;7.84;7.967;2;9;18.5;0;17.17;0.24;1473.58848;03/12/18;15:02:14;17.17;0.503;0.24;-0.811;9.32;40.7;9.7;237757;113.1;134.7;12.95;14.2;
34.0870401346377;-117.810007680544;20:06:04.64;3/12/2018;11;2.064;328.14;11.892073294907;0.85;319;332.77;3.3;0.6;21.7;.03;7.91;7.94;87;54;400.0;15.9;-3.4;D;488.8;1;40.704;1.9455;2.06;181;343.06;-117.81013618;34.08739117;0;0;1;N;0.5032761;77;77;11;158;158;340.225;0;9999.99;7.94;8.067;2;9;18.5;0;17.11;0.24;1473.38915;03/12/18;15:02:15;17.11;0.504;0.24;-0.822;9.33;33.3;7.9;215874;102.7;134.6;12.96;14.1;
34.0870449627254;-117.810010449576;20:06:05.16;3/12/2018;11;2.064;328.14;11.892073294907;0.85;321.1;334.65;3.3;1.6;21.7;.02;8.03;8.06;87;54;400.0;15.9;-3.4;D;488.8;1;40.117;1.9455;2.03;181;343.19;-117.81013618;34.08739117;0;0;1;N;0.4054025;77;77;11;154;154;340.9211;0;9999.99;8.06;8.187;2;9;18.5;0;17.11;0.24;1473.38915;03/12/18;15:02:15;17.11;0.504;0.24;-0.822;9.33;33.3;7.9;215874;102.7;134.6;12.96;14.1;
34.087049420533;-117.81001266335;20:06:05.66;3/12/2018;11;2.133;333.7;11.892073294907;0.85;321.9;335.37;3.4;2.5;21.7;.02;8.03;8.05;87;54;400.0;15.9;-3.4;D;488.8;1;39.585;1.9455;2.03;181;343.26;-117.81013618;34.08739117;0;0;1;N;0.3450884;77;77;11;151;151;341.3506;0;9999.99;8.06;8.187;2;9;18.5;0;17.05;0.24;1473.1901;03/12/18;15:02:16;17.05;0.503;0.24;-0.806;9.33;23.5;5.6;224657;106.9;134.4;12.96;14.2;
34.0870537830888;-117.810014811603;20:06:06.16;3/12/2018;11;2.133;333.7;11.892073294907;0.85;323.1;336.44;3.4;1.7;21.7;.02;8.03;8.05;87;53;399.9;15.9;-3.3;D;493.9;1;39.065;1.9455;2.03;181;343.34;-117.81013618;34.08739117;0;0;1;N;0.2878149;77;77;11;148;148;341.7587;0;9999.99;8.06;8.187;2;9;18.5;0;17.05;0.24;1473.1901;03/12/18;15:02:16;17.05;0.503;0.24;-0.806;9.33;23.5;5.6;224657;106.9;134.4;12.96;14.2;
34.0870597825738;-117.810017185981;20:06:06.66;3/12/2018;11;2.131;336.41;11.892073294907;0.85;323.5;336.8;3.6;2.3;21.7;.02;8.12;8.14;87;53;399.9;15.9;-3.3;D;493.9;1;38.364;1.9455;2.07;181;343.37;-117.81013618;34.08739117;0;0;1;N;0.2641342;79;79;11;147;147;341.9275;0;9999.99;8.15;8.276999;2;9;18.5;0;17;0.24;1473.02327;03/12/18;15:02:17;17.00;0.503;0.24;-0.831;9.33;24.8;5.9;221130;105.2;134.4;12.97;14.1;
34.0870642893176;-117.81001918749;20:06:07.16;3/12/2018;11;2.131;336.41;11.892073294907;0.85;325.9;338.95;3.6;1.7;21.7;.02;8.13;8.15;87;53;399.9;15.9;-3.3;D;493.9;1;37.832;1.9455;2.07;181;343.42;-117.81013618;34.08739117;0;0;1;N;0.2199456;79;79;11;140;140;342.2424;0;9999.99;8.16;8.287;2;9;18.5;0;17;0.24;1473.02327;03/12/18;15:02:17;17.00;0.503;0.24;-0.831;9.33;24.8;5.9;221130;105.2;134.4;12.97;14.1;
34.087068446919;-117.810020569842;20:06:07.66;3/12/2018;11;2.118;338.85;11.892073294907;0.85;325.7;338.77;3.6;1.4;21.7;.03;8.13;8.16;87;53;399.9;15.9;-3.3;D;493.9;1;37.354;1.9455;2.07;181;343.4;-117.81013618;34.08739117;0;0;1;N;0.2283148;78;78;11;143;143;342.1829;0;9999.99;8.16;8.287;2;9;18.5;0;16.95;0.24;1472.85724;03/12/18;15:02:18;16.95;0.504;0.24;-0.811;9.33;18.1;4.3;247441;117.7;134.2;12.97;14.1;
34.0870734072764;-117.810022632856;20:06:08.16;3/12/2018;11;2.118;338.85;11.892073294907;0.85;326.3;339.31;3.3;3.3;21.7;.03;8.13;8.16;87;53;399.9;15.9;-3.3;D;493.9;1;36.772;1.9455;2.07;181;343.44;-117.81013618;34.08739117;0;0;1;N;0.1968319;77;77;11;139;139;342.4072;0;9999.99;8.16;8.287;2;9;18.5;0;16.95;0.24;1472.85724;03/12/18;15:02:18;16.95;0.504;0.24;-0.811;9.33;18.1;4.3;247441;117.7;134.2;12.97;14.1;
34.08707846441;-117.810024192437;20:06:08.67;3/12/2018;11;2.204;341.63;11.892073294907;0.85;327.1;340.03;3;3.1;21.7;.02;8.28;8.30;87;53;399.9;15.9;-3.3;D;493.9;1;36.194;1.9455;2.08;181;343.41;-117.81013618;34.08739117;0;0;1;N;0.2157349;75;75;11;136;136;342.2724;0;9999.99;8.31;8.437;2;9;18.4;0;16.9;0.24;1472.69095;03/12/18;15:02:19;16.90;0.504;0.24;-0.813;9.33;10.2;2.4;236602;112.6;134.1;12.97;14.0;
34.08708304434;-117.810026018624;20:06:09.20;3/12/2018;11;2.204;341.63;11.892073294907;0.85;327.3;340.21;3;4.8;21.7;.02;8.21;8.24;87;53;399.9;15.9;-3.3;D;493.9;1;35.659;1.9455;2.09;181;343.43;-117.81013618;34.08739117;0;0;1;N;0.194948;75;75;11;136;136;342.4207;0;9999.99;8.24;8.367;2;9;18.4;0;16.88;0.24;1472.62347;03/12/18;15:02:20;16.88;0.503;0.24;-0.794;9.33;3.5;0.8;218709;104.1;134.1;12.98;14.1;
34.0870884494356;-117.810027787203;20:06:09.70;3/12/2018;11;2.141;342.09;11.892073294907;0.85;328.4;341.2;3.1;3.4;21.7;.02;8.21;8.23;87;53;399.9;15.9;-3.3;D;494.1;1;35.037;1.9455;2.09;181;343.41;-117.81013618;34.08739117;0;0;1;N;0.2063264;75;75;11;136;136;342.3395;0;9999.99;8.24;8.367;2;9;18.4;0;16.88;0.24;1472.62347;03/12/18;15:02:20;16.88;0.503;0.24;-0.794;9.33;3.5;0.8;218709;104.1;134.1;12.98;14.1;
34.0870930770184;-117.810029508404;20:06:10.20;3/12/2018;11;2.141;342.09;11.892073294907;0.85;327.7;340.57;3.1;5;21.7;.02;8.22;8.24;87;53;399.9;15.9;-3.3;D;494.1;1;34.500;1.9455;2.08;181;343.42;-117.81013618;34.08739117;0;0;1;N;0.1961982;76;76;11;134;134;342.4118;0;9999.99;8.25;8.377;2;9;18.4;0;16.85;0.24;1472.52288;03/12/18;15:02:21;16.85;0.504;0.24;-0.797;9.33;4.6;1.1;251695;119.8;134.1;12.99;14.1;
34.0870977684718;-117.810031419697;20:06:10.70;3/12/2018;11;2.126;342.11;11.892073294907;0.85;327.4;340.3;2.7;5;21.6;.02;8.22;8.24;87;53;399.9;15.9;-3.3;D;494.1;1;33.951;1.9455;2.08;181;343.45;-117.81013618;34.08739117;0;0;1;N;0.1726859;73;73;11;136;136;342.5794;0;9999.99;8.25;8.377;2;9;18.4;0;16.85;0.24;1472.52288;03/12/18;15:02:21;16.85;0.504;0.24;-0.797;9.33;4.6;1.1;251695;119.8;134.1;12.99;14.1;
34.0871017805339;-117.8100330261;20:06:11.20;3/12/2018;11;2.126;342.11;11.892073294907;0.85;326.3;339.31;2.5;5.9;21.6;.03;8.22;8.25;87;53;399.9;15.9;-3.3;D;494.1;1;33.482;1.9455;2.08;181;343.48;-117.81013618;34.08739117;0;0;1;N;0.1570177;73;73;11;141;141;342.6911;0;9999.99;8.25;8.377;2;9;18.4;0;16.85;0.24;1472.52421;03/12/18;15:02:22;16.85;0.504;0.24;-0.800;9.33;1.2;0.3;121057;57.6;134.1;12.99;14.2;
34.087106150588;-117.810035186378;20:06:11.70;3/12/2018;11;2.151;341.13;11.892073294907;0.85;326.7;339.67;2.7;6.1;21.6;.03;8.29;8.31;87;53;399.9;15.9;-3.3;D;494.1;1;32.961;1.9455;2.08;181;343.57;-117.81013618;34.08739117;0;0;1;N;0.1016521;73;73;11;141;141;343.0861;0;9999.99;8.31;8.437;2;9;18.4;0;16.85;0.24;1472.52421;03/12/18;15:02:22;16.85;0.504;0.24;-0.800;9.33;1.2;0.3;121057;57.6;134.1;12.99;14.2;
34.0871111666667;-117.810037666667;20:06:12.22;3/12/2018;11;2.092;340.61;11.892073294907;0.85;325.9;338.95;3.1;5.5;21.6;.02;8.25;8.28;87;53;399.9;15.9;-3.3;D;494.1;1;32.359;1.9455;2.07;181;343.64;-117.81013618;34.08739117;0;0;1;N;6.641828E-02;76;76;11;145;145;343.3375;0;9999.99;8.28;8.407;2;9;18.4;0;16.88;0.24;1472.62365;03/12/18;15:02:23;16.88;0.504;0.24;-0.795;9.34;-0.9;-0.2;252434;120.1;134.1;12.98;14.0;
34.0871157374676;-117.810039467666;20:06:12.75;3/12/2018;11;2.092;340.61;11.892073294907;0.85;326.5;339.49;2.9;4.5;21.6;.02;8.25;8.27;87;53;399.9;15.9;-3.3;D;494.1;1;31.829;1.9455;2.07;181;343.71;-117.81013618;34.08739117;0;0;1;N;1.846693E-02;76;76;11;140;140;343.6796;0;9999.99;8.28;8.407;2;9;18.4;0;16.88;0.24;1472.62365;03/12/18;15:02:23;16.88;0.504;0.24;-0.795;9.34;-0.9;-0.2;252434;120.1;134.1;12.98;14.0;
34.0871205;-117.810041333333;20:06:13.25;3/12/2018;11;2.134;340.92;11.892073294907;0.85;326.8;339.76;3;4;21.6;.02;8.21;8.22;87;53;399.9;15.9;-3.3;D;494.1;1;31.295;1.9455;2.08;181;343.76;-117.81013618;34.08739117;0;0;1;N;3.51973E-03;74;74;11;143;143;343.8365;0;9999.99;8.23;8.356999;2;9;18.4;0;16.9;0.24;1472.68937;03/12/18;15:02:24;16.90;0.504;0.24;-0.798;9.34;-0.2;-0.1;237222;112.9;134.2;12.98;14.2;
34.0871250879122;-117.810043130784;20:06:13.75;3/12/2018;11;2.134;340.92;11.892073294907;0.85;328.3;341.11;3.2;3.4;21.6;.02;8.21;8.22;87;53;399.9;15.9;-3.3;D;494;1;30.739;1.9455;2.08;181;343.78;-117.81013618;34.08739117;0;0;1;N;1.797726E-02;76;76;11;138;138;343.9396;0;9999.99;8.23;8.356999;2;9;18.4;0;16.9;0.24;1472.68937;03/12/18;15:02:24;16.90;0.504;0.24;-0.798;9.34;-0.2;-0.1;237222;112.9;134.2;12.98;14.2;
34.0871295;-117.810045166667;20:06:14.27;3/12/2018;11;2.101;340.89;11.892073294907;0.85;326.6;339.58;3.2;3.4;21.6;.02;8.16;8.18;87;53;399.9;15.9;-3.3;D;494;1;30.221;1.9455;2.08;181;343.81;-117.81013618;34.08739117;0;0;1;N;3.014017E-02;76;76;11;146;146;344.0263;0;9999.99;8.19;8.316999;2;9;18.3;0;16.93;0.24;1472.7895;03/12/18;15:02:25;16.93;0.504;0.24;-0.804;9.34;-4.4;-1.0;194991;92.8;134.4;12.99;14.1;
34.0871344891886;-117.810047195666;20:06:14.78;3/12/2018;11;2.101;340.89;11.892073294907;0.85;328.8;341.55;3.3;2.9;21.6;.02;8.16;8.18;87;53;399.9;15.9;-3.3;D;494;1;29.633;1.9455;2.08;181;343.91;-117.81013618;34.08739117;0;0;1;N;0.0853788;77;77;11;138;138;344.4204;0;9999.99;8.19;8.316999;2;9;18.3;0;16.93;0.24;1472.7895;03/12/18;15:02:25;16.93;0.504;0.24;-0.804;9.34;-4.4;-1.0;194991;92.8;134.4;12.99;14.1;
34.0871388333333;-117.810048833333;20:06:15.28;3/12/2018;11;2.085;342.21;11.892073294907;0.85;329.1;341.82;3.3;4.5;21.6;.02;8.06;8.08;87;53;399.9;15.9;-3.3;D;494;1;29.164;1.9455;2.1;181;343.93;-117.81013618;34.08739117;0;0;1;N;9.399018E-02;77;77;11;138;138;344.4818;0;9999.99;8.09;8.217;2;9;18.4;0;16.96;0.24;1472.89022;03/12/18;15:02:26;16.96;0.503;0.24;-0.806;9.34;-1.1;-0.3;281915;134.1;134.6;13.00;14.1;
34.0871440249281;-117.810050895907;20:06:15.78;3/12/2018;11;2.085;342.21;11.892073294907;0.85;328.9;341.64;3.5;4.1;21.7;.02;8.06;8.08;87;53;399.9;15.9;-3.3;D;494;1;28.522;1.9455;2.1;181;343.98;-117.81013618;34.08739117;0;0;1;N;0.1150137;78;78;11;139;139;344.6317;0;9999.99;8.09;8.217;2;9;18.4;0;16.96;0.24;1472.89022;03/12/18;15:02:26;16.96;0.503;0.24;-0.806;9.34;-1.1;-0.3;281915;134.1;134.6;13.00;14.1;
34.0871483333333;-117.810052166667;20:06:16.28;3/12/2018;11;2.099;342.85;11.892073294907;0.85;329.5;342.18;3.5;2.2;21.6;.02;7.92;7.94;87;53;399.9;15.9;-3.3;D;494;1;27.983;1.9455;2.1;181;344.02;-117.81013618;34.08739117;0;0;1;N;0.1338013;78;78;11;137;137;344.7658;0;9999.99;7.95;8.077;2;9;18.3;0;16.99;0.24;1472.99013;03/12/18;15:02:27;16.99;0.504;0.24;-0.813;9.34;-5.7;-1.4;125870;59.9;134.7;13.01;14.0;
34.0871529833968;-117.810053897191;20:06:16.78;3/12/2018;11;2.099;342.85;11.892073294907;0.85;329.7;342.36;3.5;1.9;21.6;.02;7.92;7.94;87;53;399.9;15.9;-3.3;D;494;1;27.490;1.9455;2.1;181;343.96;-117.81013618;34.08739117;0;0;1;N;0.1045766;78;78;11;136;136;344.5573;0;9999.99;7.95;8.077;2;9;18.3;0;16.99;0.24;1472.99013;03/12/18;15:02:27;16.99;0.504;0.24;-0.813;9.34;-5.7;-1.4;125870;59.9;134.7;13.01;14.0;
34.0871589908189;-117.810055430322;20:06:17.28;3/12/2018;11;2.096;344.35;11.892073294907;0.85;330.5;343.08;3;2.3;21.7;.02;7.86;7.88;87;53;399.8;15.9;-3.3;D;494.1;1;26.811;1.9455;2.09;181;343.86;-117.81013618;34.08739117;0;0;1;N;0.1172942;76;76;11;133;133;344.1999;0;9999.99;7.89;8.017;2;9;18.3;0;17.01;0.24;1473.05699;03/12/18;15:02:28;17.01;0.503;0.24;-0.803;9.34;-3.5;-0.8;240406;114.4;135.0;13.03;14.2;
34.0871636187956;-117.810057158959;20:06:17.78;3/12/2018;11;2.096;344.35;11.892073294907;0.85;329.9;342.54;2.9;2.6;21.7;.02;7.86;7.88;87;53;399.8;15.9;-3.3;D;494.1;1;26.273;1.9455;2.09;180;343.88;-117.81013618;34.08739117;0;0;1;N;6.380571E-02;74;74;11;134;134;344.2664;0;9999.99;7.89;8.017;2;9;18.3;0;17.01;0.24;1473.05699;03/12/18;15:02:28;17.01;0.503;0.24;-0.803;9.34;-3.5;-0.8;240406;114.4;135.0;13.03;14.2;
34.0871673333333;-117.8100575;20:06:18.28;3/12/2018;11;2.098;345.43;11.892073294907;0.85;331.8;344.25;2.9;2.5;21.7;.03;7.62;7.65;87;53;399.8;15.9;-3.3;D;494.1;1;25.803;1.9455;2.09;180;343.89;-117.81013618;34.08739117;0;0;1;N;6.891038E-02;75;75;11;130;130;344.3029;0;9999.99;7.65;7.777;2;9;18.3;0;17.02;0.24;1473.09018;03/12/18;15:02:29;17.02;0.503;0.24;-0.787;9.34;-1.1;-0.3;221880;105.6;135.3;13.05;14.1;
34.087172406661;-117.810059340417;20:06:18.78;3/12/2018;10;2.098;345.43;11.892073294907;0.85;330.7;343.26;2.9;3.1;21.7;.02;7.62;7.65;87;53;399.8;15.9;-3.3;D;494.1;1;25.281;1.9455;2.09;180;343.71;-117.81013618;34.08739117;0;0;1;N;1.521606E-02;74;74;11;130;130;343.7028;0;9999.99;7.65;7.777;2;9;18.3;0;17.02;0.24;1473.09018;03/12/18;15:02:29;17.02;0.503;0.24;-0.787;9.34;-1.1;-0.3;221880;105.6;135.3;13.05;14.1;
34.0871783098216;-117.81006040367;20:06:19.30;3/12/2018;10;2.166;346.23;11.892073294907;0.85;330.3;342.9;2.9;4.3;21.7;.02;6.88;6.91;87;53;399.8;15.9;-3.3;D;494.1;1;24.625;1.9455;2.06;180;343.5;-117.81013618;34.08739117;0;0;1;N;1.339905E-02;74;74;11;128;128;343.0766;0;9999.99;6.91;7.037;2;9;18.3;0;17.03;0.24;1473.12342;03/12/18;15:02:30;17.03;0.502;0.24;-0.785;9.35;-4.7;-1.1;267803;127.4;135.6;13.08;14.2;
34.0871828712109;-117.810062063489;20:06:19.83;3/12/2018;11;2.166;346.23;11.892073294907;0.85;329.5;342.18;2.6;4.4;21.7;.02;6.88;6.91;87;53;399.8;15.9;-3.3;D;494.1;1;24.097;1.9455;2.06;180;343.51;-117.81013618;34.08739117;0;0;1;N;9.924879E-02;73;73;11;131;131;343.1032;0;9999.99;6.91;7.037;2;9;18.3;0;17.03;0.24;1473.12342;03/12/18;15:02:30;17.03;0.502;0.24;-0.785;9.35;-4.7;-1.1;267803;127.4;135.6;13.08;14.2;
34.0871883083771;-117.810063582364;20:06:20.33;3/12/2018;11;2.12;346;11.892073294907;0.85;328.9;341.64;2.8;4.6;21.7;.02;6.57;6.59;87;53;399.8;15.9;-3.3;D;494.1;1;23.479;1.9455;2.06;180;343.42;-117.81013618;34.08739117;0;0;1;N;9.034258E-02;74;74;11;131;131;342.8625;0;9999.99;6.59;6.717;2;9;18.3;0;17.03;0.24;1473.12341;03/12/18;15:02:31;17.03;0.503;0.24;-0.786;9.35;-5.4;-1.3;222850;106.0;135.8;13.10;14.0;
34.0871928614103;-117.81006529877;20:06:20.83;3/12/2018;11;2.12;346;11.892073294907;0.85;328.1;340.93;2.8;4.2;21.7;.02;6.57;6.59;87;53;399.8;15.9;-3.3;D;494.1;1;22.949;1.9455;2.06;180;343.44;-117.81013618;34.08739117;0;0;1;N;0.1244114;74;74;11;135;135;342.9238;0;9999.99;6.59;6.717;2;9;18.3;0;17.03;0.24;1473.12341;03/12/18;15:02:31;17.03;0.503;0.24;-0.786;9.35;-5.4;-1.3;222850;106.0;135.8;13.10;14.0;
34.0871978361453;-117.810066545224;20:06:21.33;3/12/2018;11;2.111;345.65;11.892073294907;0.85;328.5;341.28;2.9;6.6;21.7;.02;6.13;6.16;87;52;399.8;15.9;-3.3;D;503.6;1;22.388;1.9455;2.08;180;343.32;-117.81013618;34.08739117;0;0;1;N;0.112579;74;74;11;132;132;342.6169;0;9999.99;6.16;6.287;2;9;18.3;0;17.03;0.24;1473.12388;03/12/18;15:02:32;17.03;0.502;0.24;-0.803;9.35;-5.9;-1.4;264181;125.7;136.2;13.13;14.2;
34.0872028655969;-117.810068456337;20:06:21.83;3/12/2018;11;2.111;345.65;11.892073294907;0.85;328.6;341.37;3;5.5;21.6;.02;6.13;6.16;87;52;399.8;15.9;-3.3;D;503.6;1;21.803;1.9455;2.08;180;343.34;-117.81013618;34.08739117;0;0;1;N;0.1541271;75;75;11;132;132;342.7118;0;9999.99;6.16;6.287;2;9;18.3;0;17.03;0.24;1473.12388;03/12/18;15:02:32;17.03;0.502;0.24;-0.803;9.35;-5.9;-1.4;264181;125.7;136.2;13.13;14.2;
34.0872071708925;-117.810069577608;20:06:22.36;3/12/2018;11;2.097;344.83;11.892073294907;0.85;327.5;340.39;3.1;6;21.7;.02;5.56;5.59;87;52;399.8;15.9;-3.3;D;503.6;1;21.315;1.9455;2.08;180;343.24;-117.81013618;34.08739117;0;0;1;N;0.1430713;76;76;11;135;135;342.4452;0;9999.99;5.59;5.717;2;9;18.2;0;17.03;0.24;1473.12347;03/12/18;15:02:33;17.03;0.502;0.24;-0.793;9.35;-5.7;-1.3;197730;94.1;136.4;13.16;14.0;
34.0872123012683;-117.810071677881;20:06:22.88;3/12/2018;11;2.097;344.83;11.892073294907;0.85;327.9;340.75;3.3;4.9;21.7;.02;5.56;5.59;87;52;399.8;15.9;-3.3;D;503.6;1;20.715;1.9455;2.08;180;343.3;-117.81013618;34.08739117;0;0;1;N;0.1646414;77;77;11;135;135;342.6368;0;9999.99;5.59;5.717;2;9;18.2;0;17.03;0.24;1473.12347;03/12/18;15:02:33;17.03;0.502;0.24;-0.793;9.35;-5.7;-1.3;197730;94.1;136.4;13.16;14.0;
34.0872164702157;-117.810073124125;20:06:23.39;3/12/2018;10;2.061;343.1;11.892073294907;0.85;327.6;340.48;3.1;3.7;21.7;.02;5.03;5.05;87;52;399.8;15.9;-3.3;D;503.6;1;20.233;1.9455;2.07;180;343.28;-117.81013618;34.08739117;0;0;1;N;0.1425456;77;77;11;135;135;342.6263;0;9999.99;5.06;5.187;2;9;18.3;0;17.04;0.24;1473.15659;03/12/18;15:02:34;17.04;0.503;0.24;-0.801;9.35;-6.0;-1.4;181997;86.6;136.7;13.18;14.2;
34.087221004437;-117.810075000923;20:06:23.91;3/12/2018;10;2.061;343.1;11.892073294907;0.85;327.3;340.21;3.3;4.3;21.7;.02;5.03;5.05;87;52;399.8;15.9;-3.3;D;503.6;1;19.702;1.9455;2.07;180;343.35;-117.81013618;34.08739117;0;0;1;N;0.1418998;77;77;11;138;138;342.799;0;9999.99;5.06;5.187;2;9;18.3;0;17.04;0.24;1473.15659;03/12/18;15:02:34;17.04;0.503;0.24;-0.801;9.35;-6.0;-1.4;181997;86.6;136.7;13.18;14.2;
34.0872254532836;-117.810076290236;20:06:24.41;3/12/2018;10;2.051;343.1;11.892073294907;0.85;327.8;340.66;3.2;5.9;21.7;.02;4.62;4.65;87;52;399.8;15.9;-3.3;D;503.6;1;19.195;1.9455;2.04;180;343.26;-117.81013618;34.08739117;0;0;1;N;0.1165895;76;76;11;135;135;342.6338;0;9999.99;4.65;4.777;2;9;18.2;0;17.05;0.24;1473.19005;03/12/18;15:02:35;17.05;0.503;0.24;-0.791;9.35;-4.4;-1.1;223030;106.1;137.0;13.21;14.1;
34.0872299058009;-117.81007821152;20:06:24.91;3/12/2018;10;2.051;343.1;11.892073294907;0.85;326.8;339.76;3.1;4.1;21.7;.02;4.62;4.64;87;52;399.8;15.9;-3.2;D;508.3;1;18.671;1.9455;2.04;180;343.35;-117.81013618;34.08739117;0;0;1;N;0.1352616;76;76;11;141;141;342.8464;0;9999.99;4.65;4.777;2;9;18.2;0;17.05;0.24;1473.19005;03/12/18;15:02:35;17.05;0.503;0.24;-0.791;9.35;-4.4;-1.1;223030;106.1;137.0;13.21;14.1;
34.0872352918755;-117.810079782667;20:06:25.41;3/12/2018;11;2.089;343.2;11.892073294907;0.85;327.9;340.75;3;5;21.7;.02;4.21;4.23;87;52;399.8;15.9;-3.2;D;508.3;1;18.057;1.9455;2.03;180;343.25;-117.81013618;34.08739117;0;0;1;N;0.1597476;75;75;11;135;135;342.6717;0;9999.99;4.24;4.367;2;9;18.3;0;17.07;0.24;1473.25578;03/12/18;15:02:36;17.07;0.502;0.24;-0.812;9.35;-6.0;-1.4;139639;66.4;137.3;13.24;14.2;
34.0872391912893;-117.810081410472;20:06:25.91;3/12/2018;11;2.089;343.2;11.892073294907;0.85;328;340.84;2.8;4.4;21.7;.02;4.21;4.23;87;52;399.8;15.9;-3.2;D;508.3;1;17.600;1.9455;2.03;180;343.31;-117.81013618;34.08739117;0;0;1;N;0.13811;73;73;11;138;138;342.826;0;9999.99;4.24;4.367;2;9;18.3;0;17.07;0.24;1473.25578;03/12/18;15:02:36;17.07;0.502;0.24;-0.812;9.35;-6.0;-1.4;139639;66.4;137.3;13.24;14.2;
34.0872445833302;-117.810082913366;20:06:26.41;3/12/2018;11;2.059;343.38;11.892073294907;0.85;326.4;339.4;2.9;4.3;21.7;.02;3.79;3.81;87;52;399.8;15.9;-3.2;D;508.3;1;16.987;1.9455;2.04;180;343.18;-117.81013618;34.08739117;0;0;1;N;0.1753723;74;74;11;140;140;342.5603;0;9999.99;3.82;3.947;2;9;18.2;0;17.08;0.24;1473.28867;03/12/18;15:02:37;17.08;0.502;0.24;-0.801;9.35;-1.2;-0.3;247994;118.0;137.6;13.26;14.1;
34.0872490575906;-117.81008478721;20:06:26.91;3/12/2018;11;2.059;343.38;11.892073294907;0.85;328.2;341.02;3.1;4;21.7;.02;3.79;3.81;87;52;399.8;15.9;-3.2;D;508.3;1;16.462;1.9455;2.04;180;343.25;-117.81013618;34.08739117;0;0;1;N;0.1446126;76;76;11;134;134;342.7797;0;9999.99;3.82;3.947;2;9;18.2;0;17.08;0.24;1473.28867;03/12/18;15:02:37;17.08;0.502;0.24;-0.801;9.35;-1.2;-0.3;247994;118.0;137.6;13.26;14.1;
34.0872539281358;-117.810086238606;20:06:27.41;3/12/2018;11;2.062;342.96;11.892073294907;0.85;328.2;341.02;3.1;4;21.7;.02;3.38;3.40;87;52;399.8;15.9;-3.2;D;508.3;1;15.906;1.9455;2.06;180;343.16;-117.81013618;34.08739117;0;0;1;N;0.1667845;76;76;11;133;133;342.6215;0;9999.99;3.41;3.537;2;9;18.2;0;17.07;0.24;1473.25616;03/12/18;15:02:38;17.07;0.502;0.24;-0.787;9.35;-6.8;-1.6;229251;109.1;137.9;13.29;14.2;
34.0872584487107;-117.810088057658;20:06:27.91;3/12/2018;11;2.062;342.96;11.892073294907;0.85;327.7;340.57;3.1;4.7;21.7;.02;3.38;3.40;87;52;399.8;15.9;-3.2;D;508.3;1;15.377;1.9455;2.06;180;343.21;-117.81013618;34.08739117;0;0;1;N;0.1462289;77;77;11;134;134;342.7681;0;9999.99;3.41;3.537;2;9;18.2;0;17.07;0.24;1473.25616;03/12/18;15:02:38;17.07;0.502;0.24;-0.787;9.35;-6.8;-1.6;229251;109.1;137.9;13.29;14.2;
34.0872629095761;-117.810089710424;20:06:28.41;3/12/2018;11;2.029;342.43;11.892073294907;0.85;329.3;342;3.2;3.7;21.7;.02;3.33;3.35;87;52;399.7;15.9;-3.2;D;509.7;1;14.860;1.9455;2.03;180;343.22;-117.81013618;34.08739117;0;0;1;N;0.1355621;76;76;11;130;130;342.8442;0;9999.99;3.36;3.487;2;9;18.2;0;17.06;0.24;1473.2227;03/12/18;15:02:39;17.06;0.502;0.24;-0.808;9.35;-4.4;-1.1;193940;92.3;138.2;13.32;14.0;
34.0872668384918;-117.81009125071;20:06:28.91;3/12/2018;11;2.029;342.43;11.892073294907;0.85;328.4;341.2;3.2;3.2;21.7;.02;3.33;3.36;87;52;399.7;15.9;-3.2;D;509.7;1;14.401;1.9455;2.03;180;343.27;-117.81013618;34.08739117;0;0;1;N;0.1231185;76;76;11;135;135;342.933;0;9999.99;3.36;3.487;2;9;18.2;0;17.06;0.24;1473.2227;03/12/18;15:02:39;17.06;0.502;0.24;-0.808;9.35;-4.4;-1.1;193940;92.3;138.2;13.32;14.0;
34.0872714653034;-117.810093005589;20:06:29.41;3/12/2018;11;2.019;342.69;11.892073294907;0.85;326.9;339.85;3.4;3.6;21.7;.02;3.01;3.03;87;52;399.7;15.9;-3.2;D;509.7;1;13.863;1.9455;2.05;180;343.3;-117.81013618;34.08739117;0;0;1;N;0.1143857;77;77;11;140;140;342.9952;0;9999.99;3.04;3.167;2;9;18.2;0;17.07;0.24;1473.25652;03/12/18;15:02:40;17.07;0.503;0.24;-0.792;9.36;-4.9;-1.2;222927;106.1;138.5;13.35;14.2;
34.087276520372;-117.810095118173;20:06:29.92;3/12/2018;11;2.019;342.69;11.892073294907;0.85;327.8;340.66;3.2;5;21.7;.03;3.01;3.04;87;52;399.7;15.9;-3.2;D;509.7;1;13.270;1.9455;2.05;180;343.41;-117.81013618;34.08739117;0;0;1;N;8.309475E-02;76;76;11;137;137;343.2184;0;9999.99;3.04;3.167;2;9;18.2;0;17.07;0.24;1473.25652;03/12/18;15:02:40;17.07;0.503;0.24;-0.792;9.36;-4.9;-1.2;222927;106.1;138.5;13.35;14.2;
34.0872806964596;-117.810096209242;20:06:30.45;3/12/2018;10;2.009;342.83;11.892073294907;0.85;327.8;340.66;3.1;5.8;21.7;.02;2.88;2.90;87;52;399.7;15.9;-3.2;D;509.7;1;12.797;1.9455;2;180;343.25;-117.81013618;34.08739117;0;0;1;N;0.1144882;76;76;11;136;136;342.9388;0;9999.99;2.91;3.037;2;9;18.2;0;17.09;0.24;1473.32286;03/12/18;15:02:41;17.09;0.502;0.24;-0.802;9.36;-2.8;-0.7;250027;119.0;138.8;13.37;14.2;
34.0872850910764;-117.810097954855;20:06:30.95;3/12/2018;10;2.009;342.83;11.892073294907;0.85;328.1;340.93;3.2;4.2;21.7;.02;2.88;2.90;87;52;399.7;15.9;-3.2;D;509.7;1;12.284;1.9455;2;180;343.31;-117.81013618;34.08739117;0;0;1;N;9.571559E-02;76;76;11;136;136;343.0721;0;9999.99;2.91;3.037;2;9;18.2;0;17.09;0.24;1473.32286;03/12/18;15:02:41;17.09;0.502;0.24;-0.802;9.36;-2.8;-0.7;250027;119.0;138.8;13.37;14.2;
34.087289738651;-117.810099218106;20:06:31.45;3/12/2018;10;2.058;343.67;11.892073294907;0.85;327.9;340.75;3.1;4.6;21.7;.02;2.78;2.80;87;52;399.7;15.9;-3.2;D;509.7;1;11.757;1.9455;2.03;180;343.13;-117.81013618;34.08739117;0;0;1;N;0.1297957;76;76;11;135;135;342.8284;0;9999.99;2.81;2.937;2;9;18.2;0;17.1;0.24;1473.3553;03/12/18;15:02:42;17.10;0.502;0.24;-0.796;9.36;-5.1;-1.2;236078;112.3;139.0;13.39;14.1;
34.0872940645266;-117.810100960719;20:06:31.95;3/12/2018;10;2.058;343.67;11.892073294907;0.85;327.6;340.48;3.2;4.5;21.7;.02;2.78;2.80;87;52;399.7;15.9;-3.2;D;509.7;1;11.251;1.9455;2.03;180;343.21;-117.81013618;34.08739117;0;0;1;N;0.1096168;76;76;11;137;137;342.9717;0;9999.99;2.81;2.937;2;9;18.2;0;17.1;0.24;1473.3553;03/12/18;15:02:42;17.10;0.502;0.24;-0.796;9.36;-5.1;-1.2;236078;112.3;139.0;13.39;14.1;
34.0872995849615;-117.810103001097;20:06:32.45;3/12/2018;10;2.07;343.04;11.892073294907;0.85;327.6;340.48;3.2;3.3;21.7;.02;2.72;2.74;87;52;399.7;15.9;-3.2;D;507.3;1;10.610;1.9455;2.02;180;343.23;-117.81013618;34.08739117;0;0;1;N;0.1003307;76;76;11;137;137;343.0372;0;9999.99;2.75;2.877;2;9;18.2;0;17.1;0.24;1473.35568;03/12/18;15:02:43;17.10;0.502;0.24;-0.797;9.36;-3.8;-0.9;194225;92.4;139.3;13.42;14.0;
34.0873034889253;-117.810104534881;20:06:32.97;3/12/2018;10;2.07;343.04;11.892073294907;0.85;328.1;340.93;3;4;21.7;.02;2.72;2.74;87;52;399.7;15.9;-3.2;D;507.3;1;10.155;1.9455;2.02;180;343.29;-117.81013618;34.08739117;0;0;1;N;8.376756E-02;76;76;11;134;134;343.1548;0;9999.99;2.75;2.877;2;9;18.2;0;17.1;0.24;1473.35568;03/12/18;15:02:43;17.10;0.502;0.24;-0.797;9.36;-3.8;-0.9;194225;92.4;139.3;13.42;14.0;
34.08730774763;-117.810106147449;20:06:33.48;3/12/2018;10;2.056;342.45;11.892073294907;0.85;328;340.84;3.1;3.5;21.7;.02;2.68;2.71;87;52;399.7;15.9;-3.2;D;507.3;1;9.660;1.9455;2.02;180;343.33;-117.81013618;34.08739117;0;0;1;N;0.0745078;76;76;11;137;137;343.2204;0;9999.99;2.71;2.837;2;9;18.2;0;17.1;0.24;1473.35548;03/12/18;15:02:44;17.10;0.502;0.24;-0.783;9.36;-6.2;-1.5;134486;64.0;139.5;13.44;14.2;
34.0873121917824;-117.81010789576;20:06:34.00;3/12/2018;10;2.056;342.45;11.892073294907;0.85;328.1;340.93;3.1;3;21.7;.03;2.68;2.71;87;52;399.7;15.9;-3.2;D;507.3;1;9.141;1.9455;2.02;180;343.41;-117.81013618;34.08739117;0;0;1;N;5.702676E-02;76;76;11;136;136;343.3445;0;9999.99;2.71;2.837;2;9;18.2;0;17.1;0.24;1473.35548;03/12/18;15:02:44;17.10;0.502;0.24;-0.783;9.36;-6.2;-1.5;134486;64.0;139.5;13.44;14.2;
34.0873170464485;-117.810109591643;20:06:34.52;3/12/2018;10;2.057;342.35;11.892073294907;0.85;327.4;340.3;2.8;3.9;21.7;.03;2.62;2.65;87;52;399.7;15.9;-3.2;D;507.3;1;8.580;1.9455;2.02;180;343.38;-117.81013618;34.08739117;0;0;1;N;6.019413E-02;74;74;11;139;139;343.3212;0;9999.99;2.65;2.777;2;9;18.2;0;17.1;0.24;1473.3566;03/12/18;15:02:45;17.10;0.502;0.24;-0.813;9.36;0.9;0.2;252566;120.2;139.8;13.46;14.2;
